[
    {
        "name": "The Integrated Rural Development of Weaker Sections in India",
        "descr": "Volunteers and Staff to engage in awareness building and relief work",
        "phone": "9849120377",
        "contact": "http://www.irdwsi.in",
        "lat": 17.7231276,
        "lng": 83.30128420000001
    },
    {
        "name": "Chhoti Si Asha",
        "descr": "This campaign aims at providing relief to daily-wage workers in Chandigarh, Mohali and Panchkula who are affected by the lockdown.\nCities suported: Chandigarh, Mohali, Panchkula\nOther Links:\nhttps://www.instagram.com/chhotisiasha/\nhttps://www.facebook.com/pg/ChhotiSiAsha/about/",
        "phone": "9811604457",
        "contact": "https://www.ourdemocracy.in/Campaign/Covid19reliefCHD",
        "lat": 30.7194022,
        "lng": 76.7646552
    },
    {
        "name": "I Am Still Human",
        "descr": "I Am Still Human is hosting a Fund Raiser to help underprivileged people living in the slum areas and roads who need help at this hour and are less aware of how important hygiene has become now out of all times. With the amount collected, we aim to provide them with Food and Ration, and some basic hygiene products like Masks, Soaps and Sanitizers.",
        "phone": "8427912765",
        "contact": "https://iamstillhuman.org/fightcoronavirus/",
        "lat": 30.7194022,
        "lng": 76.7646552
    },
    {
        "name": "CM Relief Fund- Chhattisgarh",
        "descr": "Chattisgarh CM relief Fund for donation, UPI ID - cgcmrelieffund@sbi",
        "phone": "104",
        "contact": "https://twitter.com/ChhattisgarhCMO/status/1246278820589481984",
        "lat": 21.237946899999997,
        "lng": 81.6336833
    },
    {
        "name": "UPAY",
        "descr": "Providing ration Kits and food to homeless people. Centers in Delhi, Nagpur, Pune, Gurgaon, Mauda, Banglore",
        "phone": "9403964891",
        "contact": "https://www.upay.org.in/",
        "lat": 28.6517178,
        "lng": 77.22193879999999
    },
    {
        "name": "Prabhaav Foundation",
        "descr": "In the wake of COVID19 lockdown, Prabhaav Foundation aims to provide essential supplies to the daily wage workers and in slum areas of Delhi with the aid of Delhi Police.",
        "phone": "8700147628",
        "contact": "https://www.prabhaavfoundation.org/words",
        "lat": 28.6517178,
        "lng": 77.22193879999999
    },
    {
        "name": "Indian Students at Imperial College London and IIT/NIT Alumni",
        "descr": "This money will enable them to distribute food and sanitation kits to daily wagers across India. We will shortly share videos of the amazing work that our partners are doing on the ground, and the difference that your contribution is making to people\u2019s lives in these hard times. Stay tuned.",
        "phone": "",
        "contact": "https://www.impactguru.com/fundraiser/help-sppd-rapid-response-helpage-india-elder-care-trust",
        "lat": 28.6517178,
        "lng": 77.22193879999999
    },
    {
        "name": "CITU Delhi-NCR",
        "descr": "In Delhi at least in three places migrant labours , some with family, total around ninety, are locked down with no food and unable to move because of police terror. Delhi state committee is providing help to them. All over the country our activists are trying to help out the workers and the poor, providing essential items.",
        "phone": "9891320909",
        "contact": "https://www.facebook.com/CITUHQ/",
        "lat": 28.6517178,
        "lng": 77.22193879999999
    },
    {
        "name": "Children's Jamghat",
        "descr": "Jamghat is a registered NGO that seeks to rehabilitate street children and to raise awareness within society by using the medium of street theatre as well as interactive workshops, night-walks and other social means of communication.",
        "phone": "9818705715",
        "contact": "https://www.facebook.com/childrensjamghat/",
        "lat": 28.6517178,
        "lng": 77.22193879999999
    },
    {
        "name": "Delhi Youth Welfare Association",
        "descr": "To support daily wagers or people without work by giving cash or ration during the lockdown due to COVID 19 virus sufficient for lockdown",
        "phone": "9643533224",
        "contact": "https://www.ourdemocracy.in/Campaign/covid19Delhi",
        "lat": 28.6517178,
        "lng": 77.22193879999999
    },
    {
        "name": "Mission Blessings",
        "descr": "Food, protective gear, essentials",
        "phone": "9267960063",
        "contact": "http://www.blessingngo.life",
        "lat": 28.6517178,
        "lng": 77.22193879999999
    },
    {
        "name": "PAIGAM",
        "descr": "Provide a safety kit to each waste picker in New Seemapuri that will consist of a mask and a hand sanitizer.",
        "phone": "8197095784",
        "contact": "https://pages.razorpay.com/pl_EW6B2AlIPZz41X/view",
        "lat": 28.6141793,
        "lng": 77.2022662
    },
    {
        "name": "Workers Unity Helpline",
        "descr": "The workers were working in the industrial zones of Manesar, Dharuhera, Gurugram, Faridabad, Ghaziabad, Noida (Khora Colony) Delhi and other parts of National Capital Region. Our Plan of Action We (the team of volunteers of unity workers group) will be supplying food and medicines to the stranded workers where ever we could locate them. We have arranged vehicles (private cars from friends and family) for the distribution and getting permission from the govt for plying the vehicles on the road for the said distribution. The estimated cost for this plan is Rs.2.5 lakh as of now. But we are locating more and more workers so cost estimate may increase.",
        "phone": "8506929429",
        "contact": "https://milaap.org/fundraisers/support-vasvi-aggarwal",
        "lat": 28.6517178,
        "lng": 77.22193879999999
    },
    {
        "name": "Uday Foundation",
        "descr": "The Uday Foundation works on health, support and dignity to homeless and disaster relief. The current Coronavirus (Covid-19) outbreak continues to spread, making lakhs of homeless living on the streets with lack of ability to self- quarantine, access to medical care acutely vulnerable. Uday Foundation is providing all necessary help and services to this vulnerable section of the society in the time of crisis by accepting donation material such as soap for hand wash, sanitizers and one month's food supply to distrubute.",
        "phone": "9910445043",
        "contact": "https://www.udayfoundation.org",
        "lat": 28.6517178,
        "lng": 77.22193879999999
    },
    {
        "name": "Pramod Kumar (Individual)",
        "descr": "Fundraiser for distributing raw food to families of workers and farmers in villages",
        "phone": "9811708321",
        "contact": "https://ketto.org/s?id=FKZJSNMV6",
        "lat": 28.6141793,
        "lng": 77.2022662
    },
    {
        "name": "Elixir Foundation",
        "descr": "Funds will utilized for buying grocery materials and another basic necessities.",
        "phone": "9016558924",
        "contact": "https://pages.razorpay.com/pl_EW357Eyk0tOlaa/view",
        "lat": 23.0216238,
        "lng": 72.5797068
    },
    {
        "name": "Pratigya and IIM Rachi",
        "descr": "Make a donation and make a difference by contributing Rs 2000 for those who have lost their livelihood in this lockdown",
        "phone": "9934666822",
        "contact": "https://twitter.com/B4Deo/status/1248963484655616000",
        "lat": 23.3700354,
        "lng": 85.3250132
    },
    {
        "name": "Jharkhand Social Welfare Foundation",
        "descr": "Donation of essential items",
        "phone": "8539947289",
        "contact": "https://www.facebook.com/Jharkhand-social-welfare-foundation-100893904822993/",
        "lat": 23.3700354,
        "lng": 85.3250132
    },
    {
        "name": "TUF- Mercymission (Federation of Bangalore NGO's collective movement)",
        "descr": "Provide essentials to slums",
        "phone": "8892780200",
        "contact": "https://www.instamojo.com/@tufindia",
        "lat": 12.979119800000001,
        "lng": 77.5912997
    },
    {
        "name": "Sangama",
        "descr": "Sangama plans to provide 350 family units of sexworkers and 150 transpeople whose livelihoods also depend on begging, with a monthly pakage of Rs 2000, for the months of April and May 2020. While half of this will be given in cash, the other half will be given as essential food rations for the home",
        "phone": "9811604487",
        "contact": "https://www.ourdemocracy.in/Campaign/supportsangama",
        "lat": 12.979119800000001,
        "lng": 77.5912997
    },
    {
        "name": "International Association for Human Values",
        "descr": "The CoVid -19 pandemic is pushing the world towards an economic slowdown. India\u2019s Daily Wage Earners and their families have been the worst hit by the lockdown. These unprecedented times require us to come together with immediate measures. The International Association for Human Values, The Art of Living Foundation and the Indian Film and Television Industry have launched this campaign to support our Daily Wage Earners in their time of need.",
        "phone": "9886660006",
        "contact": "https://www.iahv.org/in-en/donate/",
        "lat": 12.979119800000001,
        "lng": 77.5912997
    },
    {
        "name": "Rise Against Hunger India",
        "descr": "Free Food for poor",
        "phone": "9108403329",
        "contact": "https://www.instamojo.com/riseagainsthungerindia/",
        "lat": 12.979119800000001,
        "lng": 77.5912997
    },
    {
        "name": "Civic Response Team",
        "descr": "Fundraisers for Waste Pickers",
        "phone": "8291379122",
        "contact": "https://www.ketto.org/fundraiser/support-our-kachra-vechaks-in-the-covid-times?payment=form",
        "lat": 19.877263,
        "lng": 75.33902409999999
    },
    {
        "name": "Global Shapers Community",
        "descr": "Prevention kit and Vitamin C Tablets distribution to labour work force (cab drivers, slum dwellers, and people from low-income communities) in the Navi Mumbai.",
        "phone": "9811174540,\n9870772559\u202c,\n9167944948\u202c",
        "contact": "https://www.globalshapers.org/hubs/navi-mumbai-hub",
        "lat": 18.9387711,
        "lng": 72.8353355
    },
    {
        "name": "Apnalaya India",
        "descr": "Providing basic necessities to the people of Shivaji Nagar who don\u2019t have the means to acquire them due to the #COVID19 lockdown.",
        "phone": "9833041074",
        "contact": "www.facebook.com/supportapnalaya",
        "lat": 18.9387711,
        "lng": 72.8353355
    },
    {
        "name": "Nazareth Foundation",
        "descr": "We are appealing for funds so we can procure dry goods for these families around\nSanjay Gandhi National Park",
        "phone": "8860723233",
        "contact": "https://haqdarshak.com/book-haqdarshak-WOS",
        "lat": 18.9387711,
        "lng": 72.8353355
    },
    {
        "name": "Let's All Help",
        "descr": "Online platform to take care of basic food & hygiene needs of needy orphanages, old homes, shelters and unaided schools in India.",
        "phone": "8828811116",
        "contact": "https://letsallhelp.org/faqs",
        "lat": 18.9387711,
        "lng": 72.8353355
    },
    {
        "name": "PRATYEK",
        "descr": "We have mandated that each group must reach out to at least 3 families with a child with disabilities in various cities of india.",
        "phone": "9911602999",
        "contact": "https://www.ketto.org/fundraiser/relief-funds-for-daily-wage-earners-suffering-from-the-pandemic-covid-19?payment=form",
        "lat": 18.9387711,
        "lng": 72.8353355
    },
    {
        "name": "Mumbai Smiles Foundation",
        "descr": "Fund raising",
        "phone": "7506922040",
        "contact": "https://www.mumbaismiles.org/make-a-donation",
        "lat": 18.9387711,
        "lng": 72.8353355
    },
    {
        "name": "Seva sahayog",
        "descr": "Free food service",
        "phone": "2024537655",
        "contact": "www.facebook.com/sevasahayog/",
        "lat": 18.521428,
        "lng": 73.8544541
    },
    {
        "name": "Anjuman-e-Khandesh",
        "descr": "Providing food",
        "phone": "8108287868",
        "contact": "https://m.facebook.com/anjumane.khandesh",
        "lat": 19.1943294,
        "lng": 72.97017790000001
    },
    {
        "name": "Muse Foundation",
        "descr": "Thane Municipal Corporation's shelter home in Naupada is in need of essential items mentioned below: 63 kilos of turdal 300 kilos of rice 37 units of soap 37 units of paste tubes 37 units of sanitizer 37 units of brushes Contributions will be spent in making sure the homeless persons at the shelter are provided all the above-mentioned necessities.",
        "phone": "9833500987",
        "contact": "https://www.facebook.com/musefoundationwts/",
        "lat": 19.1943294,
        "lng": 72.97017790000001
    },
    {
        "name": "Food For Poor",
        "descr": "We have been serving 30 40 daily wage workers on a daily basis. We have started facing shortage of funds. Kindly refer the link for campaign.",
        "phone": "7977067837",
        "contact": "https://www.ketto.org/fundraiser/food4poor",
        "lat": 19.0308262,
        "lng": 73.0198537
    },
    {
        "name": "Aajeevika Bureau",
        "descr": "Fundraising protocol",
        "phone": "2942450682",
        "contact": "https://www.ketto.org/fundraiser/covid-19-relief-and-post-pandemic-rebuilding-of-migrant-lives?payment=form",
        "lat": 18.9387711,
        "lng": 72.8353355
    },
    {
        "name": "CORO India",
        "descr": "CORO works with daily wage earners like rickshaw and taxi drivers, mall workers, maids, street vendors and others in the unorganized sector.",
        "phone": "2225295002",
        "contact": "https://milaap.org/fundraisers/support-luis-miranda?fbclid=IwAR2OZ0UQkSQIZJ-xNeIqiSdC85YMbpWbfITReIx0QfN6Hi63RssGQ0dM6X8",
        "lat": 18.9387711,
        "lng": 72.8353355
    },
    {
        "name": "Ashapankh Foundation",
        "descr": "Fundraisers for PPE Kits and Medical equipments",
        "phone": "9881352959",
        "contact": "https://ashapankh.com/covid19help/",
        "lat": 18.6279288,
        "lng": 73.80098290000001
    },
    {
        "name": "Shillong Bengalee Students Association",
        "descr": "We can provide cooked food, ration, essential supplies, all sort of data from North Eastern part of India",
        "phone": "9089723490,\n97743 45911",
        "contact": "https://www.facebook.com/pg/SBSAShillong",
        "lat": 25.576044600000003,
        "lng": 91.8825282
    },
    {
        "name": "Bhaskar Foundation",
        "descr": "Donations for food drive in Jaipur, Udaipur, Bikaner, Alwar, Jodhpur",
        "phone": "1204283013",
        "contact": "https://www.dbdigital.in/donate",
        "lat": 26.916194,
        "lng": 75.820349
    },
    {
        "name": "Udaipur Sahkari Udhbhogta Thok Bhandar",
        "descr": "Donations for food drive in Udaipur by the cooperative society",
        "phone": "8233688597",
        "contact": "https://sahakarisupermarketudaipur.com/",
        "lat": 24.578720999999998,
        "lng": 73.6862571
    },
    {
        "name": "Sivaksi Facebook Friends",
        "descr": "We identify economically weaker sections of society and give them a collection of groceries, vegetables and rice.",
        "phone": "9843051590",
        "contact": "https://www.facebook.com/sivakasisff",
        "lat": 9.9256493,
        "lng": 78.1228866050448
    },
    {
        "name": "Vision",
        "descr": "Distributing reusable free masks and providing dry rations for needy people",
        "phone": "8074921101",
        "contact": "https://www.visionngo.org/",
        "lat": 17.38878595,
        "lng": 78.4610647345315
    },
    {
        "name": "Bulandshahar District Administration",
        "descr": "DM Rahat Kosh Bulandshahr",
        "phone": "5732280351",
        "contact": "https://bulandshahar.nic.in/covid19/",
        "lat": 28.5246712,
        "lng": 77.59965290000001
    },
    {
        "name": "Indian Red Cross Society",
        "descr": "Donate for COVID 19",
        "phone": "",
        "contact": "https://twitter.com/OfficeOfDMAgra/status/1245287544301867008?s=20",
        "lat": 27.1752554,
        "lng": 78.0098161
    },
    {
        "name": "CM RELIEF FUND RAJASATHAN",
        "descr": "Chief minister relief fund.",
        "phone": "1412227679",
        "contact": "http://cmrelief.rajasthan.gov.in/ContributionCovid-19.aspx",
        "lat": 26.916194,
        "lng": 75.820349
    },
    {
        "name": "Assoc. of Surgeons - procuring protective equipment",
        "descr": "Healthcare workers are at the forefront of the fight against the coronavirus pandemic. Unfortunately, they are facing a shortage of PPEs as cases arise, and need our support. Fund collection for Personal Protective Equipment(PPE)",
        "phone": "9672019934",
        "contact": "https://www.ourdemocracy.in/Campaign/PPERajasthan",
        "lat": 26.916194,
        "lng": 75.820349
    },
    {
        "name": "No Food Waste",
        "descr": "Free food for the needy",
        "phone": "9087790877",
        "contact": "https://nofoodwaste.org/covid19",
        "lat": 13.080172099999999,
        "lng": 80.2838331
    },
    {
        "name": "Chennai corona warriors",
        "descr": "Groceries delivery to physically disabled person",
        "phone": "9003862123",
        "contact": "https://milaap.org/fundraisers/support-chennai-corona-warriors-1",
        "lat": 13.080172099999999,
        "lng": 80.2838331
    },
    {
        "name": "Manitham Charitable Trust",
        "descr": "\"Manitham will be raising funds for 150 families who are street circus performers, and do not have a daily income. They have been hit especially hard during the ongoing Covid-19 crisis, and any support you\u2019d be willing to provide goes a long way. It costs INR 2000 per family for grocery and sanitary supplies for the next 2 weeks for instant relief, as government subsidies are just not adequate.\"",
        "phone": "9443095245",
        "contact": "http://manitham.org.in/?page_id=45",
        "lat": 9.9256493,
        "lng": 78.1228866050448
    },
    {
        "name": "Safa Society",
        "descr": "To provide basic ration and hygiene supply kits to those in dire need. Daily wagers, migrant workers, street children, single parents and beggars are worst hit due to the lock down",
        "phone": "9182383023,\n9014816640",
        "contact": "https://pages.razorpay.com/Covid19Relief",
        "lat": 17.38878595,
        "lng": 78.4610647345315
    },
    {
        "name": "Good UniverseNGO",
        "descr": "Catering to food and medicine requests, Good Universe wanted to focus on providing a simple, yet useful hygiene kit to those who need it the most. We partnered with T-SIG (The official CSR Cell of Telangana) and are working towards providing a basic hygiene kit during this time of distress.",
        "phone": "8977077743,\n8341180851",
        "contact": "https://www.ketto.org/fundraiser/providing-hygiene-menstrual-and-oral-health-kits-for-marginalized-people?payment=form",
        "lat": 17.38878595,
        "lng": 78.4610647345315
    },
    {
        "name": "Kalaam Foundation",
        "descr": "Caters to the needs of kids in slums by distributing rice, dal and oil",
        "phone": "9618243916",
        "contact": "https://todayskalam.org",
        "lat": 17.38878595,
        "lng": 78.4610647345315
    },
    {
        "name": "Akshaya Patra foundation, narsingi",
        "descr": "They are providing free food and ration",
        "phone": "4040031456",
        "contact": "https://www.akshayapatra.org/covid-relief-services",
        "lat": 17.38878595,
        "lng": 78.4610647345315
    },
    {
        "name": "SAFA society",
        "descr": "SAFA society has recently launched a campaign that will collect funds for the daily wage earners. The NGO would be making relief kits out of the funds that will be collected.",
        "phone": "4064533964",
        "contact": "http://safaindia.org/",
        "lat": 17.38878595,
        "lng": 78.4610647345315
    },
    {
        "name": "chitrika",
        "descr": "Chitrika is helping farmers, weavers, artisans and tribal in Telangana, Odisha, Andhra Pradesh and Maharashtra.",
        "phone": "8688903598",
        "contact": "https://covid19.ketto.org/fundraiser/ChitrikaforCorona",
        "lat": 17.38878595,
        "lng": 78.4610647345315
    },
    {
        "name": "Voice of Slum",
        "descr": "Voice of Slums has been striving to change the lives of these slum children. They have been working hard to reach out to children from vulnerable communities. Voice of Slums has provided many children with education and vocational. They are now relentlessly working towards saving these children from Corona. They are working to provide these children with a corona prevention kit. The kit will help these children to maintain their hygiene and avoid getting infected with Corona virus. Their surroundings increase their chances of getting infected as they live in deplorable conditions. By maintaining their hygiene, they can survive.",
        "phone": "8886610641",
        "contact": "https://donatekart.com/VOS/Help-children#about-campaign",
        "lat": 28.5726442,
        "lng": 77.3547609
    },
    {
        "name": "SEEDS",
        "descr": "SEEDS Response to COVID-19 focuses on immediate needs in the following areas: Financial and essential services support to the daily wage earners Support to district administration for complementing and supplementing public health systems Supply of hygiene kits and food rations to marginalised families, old age homes and orphanages Support to Government for establishment of temporary quarantine facilities, where needed",
        "phone": "9267943261,\n1126174272,\n1126174572",
        "contact": "http://www.seedsindia.org/covid19/",
        "lat": 30.3255646,
        "lng": 78.0436813
    },
    {
        "name": "AIESEC in Kolkata",
        "descr": "Help Support The Weakest Who Will Be The Hardest Hit After COVID-19 in Kolkata",
        "phone": "9163079430",
        "contact": "https://www.impactguru.com/fundraiser/help-aiesec-in-kolkata",
        "lat": 22.5677459,
        "lng": 88.34760229999999
    }
]