[
    {
        "phone": "3192251158",
        "link": "http://rmrc.res.in/",
        "name": "Regional Medical Research Centre (ICMR)",
        "lat": 11.664534800000002,
        "lng": 92.7390448
    },
    {
        "phone": "8842363401",
        "link": "https://web.archive.org/web/20190103062219/http://rmckakinada.com/",
        "name": "Rangaraya Medical College",
        "lat": 16.943738500000002,
        "lng": 82.2350607
    },
    {
        "phone": "8662450390",
        "link": "http://ssmctumkur.org/",
        "name": "Sidhartha Medical College",
        "lat": 16.5087586,
        "lng": 80.6185102
    },
    {
        "phone": "3732381548",
        "link": "http://rmrcne.org.in/",
        "name": "Regional Medical Research Center, NE Region",
        "lat": 27.484459700000002,
        "lng": 94.9019447
    },
    {
        "phone": "3612132751",
        "link": "http://www.gmchassam.gov.in/",
        "name": "Gauhati Medical College",
        "lat": 26.1805978,
        "lng": 91.753943
    },
    {
        "phone": "3762370107",
        "link": "https://jorhatmedicalcollege.in/jmch/",
        "name": "Jorhat Medical College",
        "lat": 26.757792499999997,
        "lng": 94.2079645
    },
    {
        "phone": "3842229110",
        "link": "http://smcassam.gov.in/",
        "name": "Silchar Medical College",
        "lat": 24.817861100000002,
        "lng": 92.7562207529437
    },
    {
        "phone": "18003456767",
        "link": "http://tmcassam.org/about_hospital.php",
        "name": "TEZPUR MEDICAL COLLEGE & HOSPITAL",
        "lat": 26.61695705,
        "lng": 92.7650071736503
    },
    {
        "phone": "6272256203",
        "link": "https://dmch.in/",
        "name": "Darbhanga Medical College",
        "lat": 26.08314325,
        "lng": 86.03257096612819
    },
    {
        "phone": "9801149243",
        "link": "http://www.igims.org/",
        "name": "Indira Gandhi Institute of Medical Sciences",
        "lat": 25.609323899999996,
        "lng": 85.1235252
    },
    {
        "phone": "6122636651",
        "link": "https://www.rmrims.org.in/",
        "name": "Rajendra Memorial Research Institute of Medical Sciences",
        "lat": 25.609323899999996,
        "lng": 85.1235252
    },
    {
        "phone": "1722747585",
        "link": "http://pgimer.edu.in/PGIMER_PORTAL/PGIMERPORTAL/home.jsp",
        "name": "Post Graduate Institute of Medical Education & Research",
        "lat": 30.7194022,
        "lng": 76.7646552
    },
    {
        "phone": "1722601023",
        "link": "https://gmch.gov.in/",
        "name": "Govt. Medical College",
        "lat": 30.7194022,
        "lng": 76.7646552
    },
    {
        "phone": "7712572240",
        "link": "http://www.aiimsraipur.edu.in/",
        "name": "All India Institute of Medical Sciences",
        "lat": 21.237946899999997,
        "lng": 81.6336833
    },
    {
        "phone": "7782292878",
        "link": "https://covid.icmr.org.in/index.php/testing-labs-deatails",
        "name": "Late Baliram Kashyap M Govt. Medical College",
        "lat": 19.0870758,
        "lng": 82.0235715
    },
    {
        "phone": "1126588700",
        "link": "https://www.aiims.edu/en.html",
        "name": "All India Institute Medical Sciences",
        "lat": 28.6517178,
        "lng": 77.22193879999999
    },
    {
        "phone": "1123363728",
        "link": "http://lhmc-hosp.gov.in/",
        "name": "Lady Hardinge Medical College",
        "lat": 28.6517178,
        "lng": 77.22193879999999
    },
    {
        "phone": "1123913148",
        "link": "https://ncdc.gov.in/",
        "name": "National Centre for Disease Control",
        "lat": 28.6517178,
        "lng": 77.22193879999999
    },
    {
        "phone": "1123404286",
        "link": "https://rmlh.nic.in/",
        "name": "Atal Bihari Vajpayee Institute of Medical Sciences and Ram Manohar Lohia Hospital",
        "lat": 28.6517178,
        "lng": 77.22193879999999
    },
    {
        "phone": "1146300000",
        "link": "https://www.ilbs.in/",
        "name": "Institute of Liver & Biliary Sciences",
        "lat": 28.6517178,
        "lng": 77.22193879999999
    },
    {
        "phone": "1123338199",
        "link": "",
        "name": "Army Hospital Research & Referral",
        "lat": 28.6517178,
        "lng": 77.22193879999999
    },
    {
        "phone": "8322495393",
        "link": "http://www.gmc.goa.gov.in/index.php/en/",
        "name": "Goa Medical College",
        "lat": 15.4589541,
        "lng": 73.85897920000001
    },
    {
        "phone": "2782510236",
        "link": "http://gmcbhavnagar.edu.in/",
        "name": "Govt. Medical College",
        "lat": 21.771883600000002,
        "lng": 72.1416449
    },
    {
        "phone": "2882553515",
        "link": "http://www.mpsmc.in/",
        "name": "MP Shah Govt Medical College",
        "lat": 22.4732415,
        "lng": 70.0552102
    },
    {
        "phone": "2453414",
        "link": "",
        "name": "Govt Medical College, Rajkot",
        "lat": 22.3051991,
        "lng": 70.80283349999999
    },
    {
        "phone": "2612244175",
        "link": "https://www.gmcsurat.edu.in/",
        "name": "Govt. Medical College",
        "lat": 21.186460699999998,
        "lng": 72.80812809999999
    },
    {
        "phone": "2652424848",
        "link": "http://www.medicalcollegebaroda.edu.in/",
        "name": "Govt. Medical College",
        "lat": 22.2973142,
        "lng": 73.1942567
    },
    {
        "phone": "2812458337",
        "link": "http://pdumcrajkot.org/ContactUs.aspx",
        "name": "Government",
        "lat": 22.3051991,
        "lng": 70.80283349999999
    },
    {
        "phone": "7922680074",
        "link": "http://bjmcabd.edu.in",
        "name": "B J medical college",
        "lat": 23.0216238,
        "lng": 72.5797068
    },
    {
        "phone": "2612368040",
        "link": "http://smimer.suratmunicipal.gov.in",
        "name": "SMIMER Hospital & Medical College",
        "lat": 21.186460699999998,
        "lng": 72.80812809999999
    },
    {
        "phone": "1262281307",
        "link": "http://www.uhsr.ac.in/",
        "name": "Pt. B.D. Sharma Post Graduate Inst. of Med. Sciences",
        "lat": 28.9010899,
        "lng": 76.58019350000001
    },
    {
        "phone": "1263283025",
        "link": "http://www.bpsgmckhanpur.ac.in/",
        "name": "BPS Govt. Medical College",
        "lat": 28.991970000000002,
        "lng": 77.03426329999999
    },
    {
        "phone": "1800113839",
        "link": "http://www.esichospitals.gov.in/faridabad-nh-3-nit-home",
        "name": "ESIC Medical College and Hospital",
        "lat": 28.402836999999998,
        "lng": 77.30856259999999
    },
    {
        "phone": "1892287187",
        "link": "http://rpgmc.ac.in/",
        "name": "Dr. Rajendra Prasad Govt. Medical College",
        "lat": 32.166667,
        "lng": 76.25
    },
    {
        "phone": "1772654713",
        "link": "http://www.igmcshimla.edu.in/",
        "name": "Indira Gandhi Medical College & Hospital",
        "lat": 31.104152600000003,
        "lng": 77.17097290000001
    },
    {
        "phone": "1912584234",
        "link": "http://gmcjammu.nic.in/",
        "name": "Govt. Medical College",
        "lat": 32.7185614,
        "lng": 74.8580917
    },
    {
        "phone": "1942401013",
        "link": "http://www.skims.ac.in/",
        "name": "Sher-i-Kashmir Institute of Medical Sciences",
        "lat": 34.07474439999999,
        "lng": 74.82044429999999
    },
    {
        "phone": "1942453114",
        "link": "http://www.gmcs.edu.in/",
        "name": "Government Medical College",
        "lat": 34.07474439999999,
        "lng": 74.82044429999999
    },
    {
        "phone": "9085623485",
        "link": "https://udhampur.nic.in/public-utility/\u0915\u092e\u093e\u0902\u0921-\u0939\u0949\u0938\u094d\u092a\u093f\u091f\u0932/",
        "name": "Command Hospital (NC)",
        "lat": 33.0,
        "lng": 75.166667
    },
    {
        "phone": "6572360859",
        "link": "https://www.mgmmedicalcollege.org/",
        "name": "MGM Medical College & Hospital",
        "lat": 22.8015194,
        "lng": 86.2029579
    },
    {
        "phone": "8026088500",
        "link": "http://www.sdstrcrgicd.org/",
        "name": "Rajiv Gandhi Institute For Chest Disease",
        "lat": 12.979119800000001,
        "lng": 77.5912997
    },
    {
        "phone": "8026769036",
        "link": "http://www.anandlab.com/",
        "name": "Anand Diagnostic Laboratory Banashankari",
        "lat": 12.979119800000001,
        "lng": 77.5912997
    },
    {
        "phone": "8026700810",
        "link": "http://www.bmcri.org/",
        "name": "Bangalore Medical College & Research Institute",
        "lat": 12.979119800000001,
        "lng": 77.5912997
    },
    {
        "phone": "8025301215",
        "link": "https://www.chaf-b.org/",
        "name": "Command Hospital (Air Force)",
        "lat": 12.979119800000001,
        "lng": 77.5912997
    },
    {
        "phone": "8026995530",
        "link": "http://nimhans.ac.in/",
        "name": "National Institute of Mental Health & Neurosciences",
        "lat": 12.979119800000001,
        "lng": 77.5912997
    },
    {
        "phone": "8472227252",
        "link": "http://www.gims-gulbarga.com/",
        "name": "Gulbarga Institute of Medical Sciences",
        "lat": 17.166667,
        "lng": 77.083333
    },
    {
        "phone": "8172231699",
        "link": "http://www.hims-hassan.org/index.html",
        "name": "Hassan Inst. of Med. Sciences",
        "lat": 13.007081699999999,
        "lng": 76.0992703
    },
    {
        "phone": "8242413208",
        "link": "https://www.nhp.gov.in/hospital/wenlock-district-hospital-dakshina_kannada-karnataka",
        "name": "Wenlock District Hospital",
        "lat": 12.869810099999999,
        "lng": 74.8430082
    },
    {
        "phone": "8212520512",
        "link": "https://www.mysoremedicalcollege.com/",
        "name": "Mysore Medical College & Research Institute",
        "lat": 12.3051828,
        "lng": 76.6553609
    },
    {
        "phone": "8182269666",
        "link": "https://sims-shimoga.com/",
        "name": "Shimoga Instt. of Medical Sciences",
        "lat": 13.9311723,
        "lng": 75.569737
    },
    {
        "phone": "8049694969",
        "link": "https://www.sakraworldhospital.com/",
        "name": "Sakra World Hospital Lab Services",
        "lat": 12.979119800000001,
        "lng": 77.5912997
    },
    {
        "phone": "",
        "link": "",
        "name": "National Institute Of Virology",
        "lat": 9.48870055,
        "lng": 76.41256410969629
    },
    {
        "phone": "4812353730",
        "link": "http://www.iucbr.ac.in/",
        "name": "Inter University",
        "lat": 9.62857045,
        "lng": 76.6455250291479
    },
    {
        "phone": "4952350216",
        "link": "https://www.govtmedicalcollegekozhikode.ac.in/",
        "name": "Govt. Medical College, Kozhikode",
        "lat": 11.2446144,
        "lng": 75.7759372
    },
    {
        "phone": "4712443152",
        "link": "https://www.sctimst.ac.in/",
        "name": "Sree Chitra Tirunal Institute Of Medical Sciences",
        "lat": 8.5058909,
        "lng": 76.9570481
    },
    {
        "phone": "4712529400",
        "link": "https://www.rgcb.res.in/",
        "name": "Rajiv Gandhi Center For Biotechnology",
        "lat": 8.5058909,
        "lng": 76.9570481
    },
    {
        "phone": "4712528300",
        "link": "https://tmc.kerala.gov.in/",
        "name": "Govt. Medical College",
        "lat": 8.5058909,
        "lng": 76.9570481
    },
    {
        "phone": "4712472225",
        "link": "https://covid.icmr.org.in/index.php/testing-labs-deatails#",
        "name": "State Public Health Laboratory",
        "lat": 8.5058909,
        "lng": 76.9570481
    },
    {
        "phone": "4872200310",
        "link": "http://gmctsr.org/",
        "name": "Govt. Medical College",
        "lat": 10.5256264,
        "lng": 76.21325420000001
    },
    {
        "phone": "7552672322",
        "link": "http://www.aiimsbhopal.edu.in/",
        "name": "All India Institute of Medical Sciences, Bhopal",
        "lat": 23.253092300000002,
        "lng": 77.3962718
    },
    {
        "phone": "7552540590",
        "link": "http://www.gmcbhopal.net/",
        "name": "Gandhi Medical College",
        "lat": 23.253092300000002,
        "lng": 77.3962718
    },
    {
        "phone": "7512341550",
        "link": "https://drdo.gov.in/labs-establishment/contact-us/defence-research-development-establishment-drde",
        "name": "Defense Research Development Establishment",
        "lat": 26.2037247,
        "lng": 78.1573628
    },
    {
        "phone": "7312527383",
        "link": "http://www.mgmmcindore.in/",
        "name": "Mahatma Gandhi Memorial Medical College",
        "lat": 22.7203616,
        "lng": 75.8681996
    },
    {
        "phone": "7612370800",
        "link": "https://www.nirth.res.in/",
        "name": "National Institute for Research on Tribal Health",
        "lat": 23.1608938,
        "lng": 79.9497702
    },
    {
        "phone": "7552672322",
        "link": "http://www.aiimsbhopal.edu.in/",
        "name": "All India Institute of Medical Sciences (AIIMS), Bhopal",
        "lat": 23.253092300000002,
        "lng": 77.3962718
    },
    {
        "phone": "7552540590",
        "link": "http://www.gmcbhopal.net/",
        "name": "Gandhi Medical College, Bhopal",
        "lat": 23.253092300000002,
        "lng": 77.3962718
    },
    {
        "phone": "7552742212",
        "link": "http://bmhrc.ac.in/",
        "name": "Bhopal Memorial Hospital & Research Centre, Bhopal",
        "lat": 23.253092300000002,
        "lng": 77.3962718
    },
    {
        "phone": "7312527383",
        "link": "http://www.mgmmcindore.in/",
        "name": "Mahatma Gandhi Memorial Medical College, Indore",
        "lat": 22.7203616,
        "lng": 75.8681996
    },
    {
        "phone": "7612370800",
        "link": "https://www.nirth.res.in/",
        "name": "National Institute for Research in Tribal Health, Jabalpur",
        "lat": 23.1608938,
        "lng": 79.9497702
    },
    {
        "phone": "0751 2403400",
        "link": "http://www.grmcgwalior.org/",
        "name": "Gajra Raja Medical College, Gwalior",
        "lat": 26.2037247,
        "lng": 78.1573628
    },
    {
        "phone": "7512341550",
        "link": "https://covid.icmr.org.in/index.php/testing-labs-deatails#",
        "name": "Defence Research & Development Establishment (DRDE), Gwalior",
        "lat": 26.2037247,
        "lng": 78.1573628
    },
    {
        "phone": "2402402412",
        "link": "http://www.gmcaurangabad.com/",
        "name": "Government Medical College",
        "lat": 19.877263,
        "lng": 75.33902409999999
    },
    {
        "phone": "2562239408",
        "link": "http://sbhgmcdhule.org/",
        "name": "Shree Bhausaheb Hire Govt. Medical College",
        "lat": 21.13050145,
        "lng": 74.4789118055123
    },
    {
        "phone": "2332232090",
        "link": "https://www.gmcmiraj.edu.in/",
        "name": "Government Medical College",
        "lat": 16.85851605,
        "lng": 74.71089474233871
    },
    {
        "phone": "2223027700",
        "link": "https://portal.mcgm.gov.in/irj/portal/anonymous/qlkasturbhahosp?guest_user=english",
        "name": "Kasturba Hospital for Infectious Diseases",
        "lat": 18.9387711,
        "lng": 72.8353355
    },
    {
        "phone": "2223735555",
        "link": "http://ggmcjjh.com/",
        "name": "Grant Medical College & Sir JJ Hospital",
        "lat": 18.9387711,
        "lng": 72.8353355
    },
    {
        "phone": "2224160947",
        "link": "http://www.haffkineinstitute.org/contact.htm",
        "name": "Haffkine Institute",
        "lat": 18.9387711,
        "lng": 72.8353355
    },
    {
        "phone": "7122725274",
        "link": "https://www.iggmc.org/",
        "name": "Indira Gandhi Govt. Medical College",
        "lat": 21.1498134,
        "lng": 79.0820556
    },
    {
        "phone": "7122725423",
        "link": "https://www.iggmc.org/Nursing.htm",
        "name": "Indira Gandhi Government Medical College & Hospital",
        "lat": 21.1498134,
        "lng": 79.0820556
    },
    {
        "phone": "2026128000",
        "link": "http://www.bjmcpune.org/",
        "name": "BJ Medical College",
        "lat": 18.521428,
        "lng": 73.8544541
    },
    {
        "phone": "2023373158",
        "link": "https://www.afmc.nic.in/",
        "name": "Armed Forces Medical College",
        "lat": 18.521428,
        "lng": 73.8544541
    },
    {
        "phone": "2026127301",
        "link": "http://www.niv.co.in/",
        "name": "National Institute of Virology",
        "lat": 18.521428,
        "lng": 73.8544541
    },
    {
        "phone": "2172749401",
        "link": "http://vmgmc.edu.in/",
        "name": "V. M. Government Medical College",
        "lat": 17.84990665,
        "lng": 75.27632027348459
    },
    {
        "phone": "3852414629",
        "link": "http://www.rims.edu.in/",
        "name": "Regional Institute of Medical Sciences",
        "lat": 24.800608800000003,
        "lng": 93.9369998
    },
    {
        "phone": "3852443144",
        "link": "https://covid.icmr.org.in/index.php/testing-labs-deatails#",
        "name": "Jawaharlal Nehru Institute of Med. Sciences, Imphal-East",
        "lat": 24.800608800000003,
        "lng": 93.9369998
    },
    {
        "phone": "3642538013",
        "link": "http://www.neigrihms.gov.in/",
        "name": "North Eastern Indira Gandhi Regional Institute of Health & Medical Sciences",
        "lat": 25.576044600000003,
        "lng": 91.8825282
    },
    {
        "phone": "6742301322",
        "link": "http://www.rmrcbbsr.gov.in/",
        "name": "Regional Medical Research Centre",
        "lat": 20.2667774,
        "lng": 85.8435592
    },
    {
        "phone": "6742476789",
        "link": "https://aiimsbhubaneswar.nic.in/",
        "name": "All India Institute of Medical Sciences",
        "lat": 20.2667774,
        "lng": 85.8435592
    },
    {
        "phone": "4132296000",
        "link": "https://www.jipmer.edu.in/",
        "name": "Jawaharlal Institute of Postgraduate Medical Education & Research, Puducherry",
        "lat": 11.934056800000002,
        "lng": 79.83064470000001
    },
    {
        "phone": "1832426918",
        "link": "http://gmc.edu.in/",
        "name": "Govt. Medical College",
        "lat": 31.634308299999997,
        "lng": 74.8736788
    },
    {
        "phone": "1752212018",
        "link": "https://gmcpatiala.com/",
        "name": "Govt. Medical College",
        "lat": 30.2090874,
        "lng": 76.33987208562209
    },
    {
        "phone": "5322256814",
        "link": "https://www.nhp.gov.in/hospital/swaroop-rani-nehru-hospital-allahabad-uttar_pradesh",
        "name": "Swaroop Rani Nehru Hospital",
        "lat": 25.4381302,
        "lng": 81.8338005
    },
    {
        "phone": "1202400072",
        "link": "http://nib.gov.in/",
        "name": "National Institute of Biologicals, Noida",
        "lat": 28.5726442,
        "lng": 77.3547609
    },
    {
        "phone": "",
        "link": "http://www.coochbehargmch.org",
        "name": "Coochbehar Medical College",
        "lat": 26.485157300000004,
        "lng": 89.5246926
    },
    {
        "phone": "1452425050",
        "link": "https://education.rajasthan.gov.in/jlnmcajmer",
        "name": "JLN Medical College",
        "lat": 26.4691,
        "lng": 74.639
    },
    {
        "phone": "1512220115",
        "link": "https://education.rajasthan.gov.in/spmcbikaner",
        "name": "SP Medical College",
        "lat": 28.015928600000002,
        "lng": 73.3171367
    },
    {
        "phone": "1412708836",
        "link": "https://education.rajasthan.gov.in/smsmcjaipur",
        "name": "Sawai Man Singh Medical College",
        "lat": 26.916194,
        "lng": 75.820349
    },
    {
        "phone": "7432233388",
        "link": "https://education.rajasthan.gov.in/content/raj/education/jhalawar-hospital---medical-college--jhalawar/en/home.html",
        "name": "Jhalawar Medical College",
        "lat": 24.313236800000002,
        "lng": 76.52223626123
    },
    {
        "phone": "2912740741",
        "link": "http://www.aiimsjodhpur.edu.in/",
        "name": "All India Institute of Medical Sciences",
        "lat": 26.2967719,
        "lng": 73.0351433
    },
    {
        "phone": "2912434374",
        "link": "https://education.rajasthan.gov.in/medicaleducation",
        "name": "Dr. Sampurnanand Medical College",
        "lat": 26.2967719,
        "lng": 73.0351433
    },
    {
        "phone": "7442470674",
        "link": "https://education.rajasthan.gov.in/content/raj/education/government-medical-college--kota/en/home.html",
        "name": "Govt. Medical College",
        "lat": 25.196825600000004,
        "lng": 76.0008933088555
    },
    {
        "phone": "2942418258",
        "link": "https://education.rajasthan.gov.in/rntmcudaipur",
        "name": "RNT Medical College",
        "lat": 24.578720999999998,
        "lng": 73.6862571
    },
    {
        "phone": "9845562399",
        "link": "https://covid.icmr.org.in/index.php/testing-labs-deatails#",
        "name": "Sir Thutob Namgyal Memorial (STNM)",
        "lat": 27.329046,
        "lng": 88.6122673
    },
    {
        "phone": "4425305000",
        "link": "http://www.mmc.ac.in/mmc/",
        "name": "Madras Medical College",
        "lat": 13.080172099999999,
        "lng": 80.2838331
    },
    {
        "phone": "4422501520",
        "link": "http://www.kipmr.org.in/",
        "name": "King Institute of Preventive Medicine & Research",
        "lat": 13.080172099999999,
        "lng": 80.2838331
    },
    {
        "phone": "4425282350",
        "link": "http://www.stanleymedicalcollege.ac.in/stanleymedicalcollege/",
        "name": "Stanley Medical College",
        "lat": 13.080172099999999,
        "lng": 80.2838331
    },
    {
        "phone": "18004251316",
        "link": "http://www.microlabindia.com/",
        "name": "Microbiological Laboratory",
        "lat": 11.0018115,
        "lng": 76.96284250000001
    },
    {
        "phone": "4222301393",
        "link": "http://www.cmccbe.ac.in/",
        "name": "Coimbatore Medical College",
        "lat": 11.0018115,
        "lng": 76.96284250000001
    },
    {
        "phone": "4522532535",
        "link": "http://www.mdmc.ac.in/mdmc/content_page.jsp?sqf=12&sq1=contactus",
        "name": "Madurai Medical College",
        "lat": 9.9256493,
        "lng": 78.1228866050448
    },
    {
        "phone": "4272383313",
        "link": "http://www.gmkmc.ac.in/gmkmc/",
        "name": "Kumar Mangalam Govt. Medical College",
        "lat": 11.661201199999999,
        "lng": 78.1602498
    },
    {
        "phone": "4546263668",
        "link": "http://www.tmctheni.ac.in/tmctheni/content_page.jsp?sqf=12&sq1=contactus",
        "name": "Govt. Theni Medical College",
        "lat": 9.969664300000002,
        "lng": 77.4742004852482
    },
    {
        "phone": "4366220040",
        "link": "http://www.tmctvr.ac.in/tmctvr/",
        "name": "Govt. Medical College",
        "lat": 10.73618605,
        "lng": 79.6331865943763
    },
    {
        "phone": "4312401011",
        "link": "http://www.kapvgmc.ac.in/kapvgmc/",
        "name": "Govt. Medical College",
        "lat": 10.804973,
        "lng": 78.6870296
    },
    {
        "phone": "4622572733",
        "link": "http://tvmc.ac.in/",
        "name": "Tirunelveli Medical College, Tirunelveli",
        "lat": 8.8082342,
        "lng": 77.8114843
    },
    {
        "phone": "4146232300",
        "link": "http://www.vmcvpm.ac.in/vmcvpm/index.jsp",
        "name": "Govt. Medical College",
        "lat": 11.9398285,
        "lng": 79.4945645
    },
    {
        "phone": "4027502742",
        "link": "https://www.gandhihospital.in/",
        "name": "Gandhi Medical College",
        "lat": 17.4690889,
        "lng": 78.5059176
    },
    {
        "phone": "4024653992",
        "link": "https://osmaniamedicalcollege.org/",
        "name": "Osmania Medical College",
        "lat": 17.38878595,
        "lng": 78.4610647345315
    },
    {
        "phone": "4027682218",
        "link": "http://www.welltechfoundation.org/ronald-ross.php",
        "name": "Sir Ronald Ross Institute of Tropical & Communicable Diseases",
        "lat": 17.38878595,
        "lng": 78.4610647345315
    },
    {
        "phone": "4023489999",
        "link": "https://nims.edu.in/",
        "name": "Nizam\u2019s Institute of Medical Sciences",
        "lat": 17.38878595,
        "lng": 78.4610647345315
    },
    {
        "phone": "9849905227",
        "link": "http://ipm.telangana.gov.in/contactus.html",
        "name": "Institute of Preventive Medicine",
        "lat": 17.38878595,
        "lng": 78.4610647345315
    },
    {
        "phone": "4027160222",
        "link": "https://www.ccmb.res.in/",
        "name": "Centre for Cellular & Molecular Biology",
        "lat": 17.38878595,
        "lng": 78.4610647345315
    },
    {
        "phone": "3812356701",
        "link": "http://www.agmc.nic.in/",
        "name": "Government Medical College",
        "lat": 23.8312377,
        "lng": 91.2823821
    },
    {
        "phone": "",
        "link": "https://amu.ac.in/principal.jsp?did=10146",
        "name": "Jawaharlal Nehru Medical College",
        "lat": 27.87698975,
        "lng": 78.1372902760099
    },
    {
        "phone": "5712720382",
        "link": "https://www.amu.ac.in/hospital.jsp",
        "name": "Jawaharlal Nehru Medical College",
        "lat": 27.87698975,
        "lng": 78.1372902760099
    },
    {
        "phone": "5512250442",
        "link": "http://rmrcgkp.icmr.org.in/",
        "name": "Regional Medical Research Centre",
        "lat": 26.67132865,
        "lng": 83.36458284327041
    },
    {
        "phone": "5222480532",
        "link": "https://www.nhp.gov.in/hospital/command-hospital-(cc)-lucknow-lucknow-uttar_pradesh",
        "name": "Command Hospital",
        "lat": 26.8381,
        "lng": 80.9346001
    },
    {
        "phone": "5222258880",
        "link": "http://www.kgmu.org/",
        "name": "King George Medical University",
        "lat": 26.8381,
        "lng": 80.9346001
    },
    {
        "phone": "5222668700",
        "link": "http://www.sgpgi.ac.in/",
        "name": "Sanjay Gandhi Post Graduate Institute",
        "lat": 26.8381,
        "lng": 80.9346001
    },
    {
        "phone": "1212760888",
        "link": "http://llrmmedicalcollege.nic.in/",
        "name": "Lala Lajpat Rai Memorial Medical College",
        "lat": 28.916666999999997,
        "lng": 77.68333299999999
    },
    {
        "phone": "5688276599",
        "link": "http://www.upums.ac.in/",
        "name": "Uttar Pradesh RIMS",
        "lat": 26.9173251,
        "lng": 79.0248420214561
    },
    {
        "phone": "2367568",
        "link": "http://www.bhu.ac.in/ims/",
        "name": "Institute of Medical Sciences, Banaras Hindu University",
        "lat": 25.3356491,
        "lng": 83.0076292
    },
    {
        "phone": "5422367568",
        "link": "http://www.bhu.ac.in/ims/",
        "name": "Institute of Medical Sciences, Banaras Hindu University",
        "lat": 25.3356491,
        "lng": 83.0076292
    },
    {
        "phone": "5946282824",
        "link": "https://gmchld.org/",
        "name": "Govt. Medical College",
        "lat": 29.2151635,
        "lng": 79.5266898
    },
    {
        "phone": "1352462927",
        "link": "http://utsr.org/",
        "name": "All India Institute of Medical Sciences",
        "lat": 30.1086537,
        "lng": 78.2916193
    },
    {
        "phone": "3532585478",
        "link": "https://www.nbmch.org/contact.html",
        "name": "North Bengal Medical College",
        "lat": 26.7164127,
        "lng": 88.4309916
    },
    {
        "phone": "3322041101",
        "link": "http://www.ipgmer.gov.in/",
        "name": "Institute of Post Graduate Medical Education & Research",
        "lat": 22.5677459,
        "lng": 88.34760229999999
    },
    {
        "phone": "3323633373",
        "link": "http://www.niced.org.in/",
        "name": "National Institute of Cholera & Enteric Diseases",
        "lat": 22.5677459,
        "lng": 88.34760229999999
    },
    {
        "phone": "3324765101",
        "link": "https://cnci.org.in/",
        "name": "Chittaranjan National Cancer Institute",
        "lat": 22.5677459,
        "lng": 88.34760229999999
    },
    {
        "phone": "3222222400",
        "link": "http://midnaporemmc.ac.in/",
        "name": "Midnapore Medical College",
        "lat": 22.467195800000002,
        "lng": 87.17500550608801
    }
]